"site","longitude","latitude"
"Lump",153.3,-28.65
"Bump",150.53,-33.12
"Wallow",151.84,-32.83
"Hollow",150.95,-34.04
"Hillock",150.22,-35.1
"Dale",148.64,-34.87
"Sticks",149.5,-30.89
"Logs",149.8,-37.37
"Wiffle",150.03,-33.1
"Waffle",149.21,-35.41
